{
  "1": [
    {
      "PACK_ID1": {
        "id": "PACK_ID1",
        "prod_id": "PROD_ID1",
        "customer": {
          "id": "customer_id",
          "name": "customer name",
          "email": "custmer@gggg.il",
          "address": {
            "street": "Hertzel",
            "number": 10,
            "city": "Tel Aviv",
            "lon": 32.0625439,
            "lat": 34.7699465
          }
        },
        "start_date": 1746907533,
        "eta": 1747771531,
        "status": "shipped",
        "path": [
          {
            "lon": 32.0263808,
            "lat": 34.02655808
          },
          {
            "lon": 32.0263808,
            "lat": 34.02655808
          }
        ]
      }
    }
  ],
  "2": [
    {
      "1234r5": {
        "id": "1234r5",
        "prod_id": "12345",
        "customer": {
          "id": "1234",
          "name": "2134",
          "email": "1234@dsf",
          "address": {
            "street": "Hillel",
            "number": 1,
            "city": "Jerusalem",
            "lon": 35.2159793,
            "lat": 31.780471
          }
        },
        "start_date": 1747760400,
        "eta": 1748019600,
        "status": "packed",
        "path": [
          {
            "lon": 35.2159793,
            "lat": 31.780471
          },
          {
            "lon": 35.2159793,
            "lat": 31.780471
          }
        ]
      }
    },
    {
      "2345": {
        "id": "2345",
        "prod_id": "3245",
        "customer": {
          "id": "2345",
          "name": "2345",
          "email": "324@dsf",
          "address": {
            "street": "3245",
            "number": 234,
            "city": "3245",
            "lon": 35.157466,
            "lat": 32.813778
          }
        },
        "start_date": 1747760400,
        "eta": 1748019600,
        "status": "packed",
        "path": [
          {
            "lon": 35.157466,
            "lat": 32.813778
          },
          {
            "lon": 35.157466,
            "lat": 32.813778
          }
        ]
      }
    },
    {
      "1234": {
        "id": "1234",
        "prod_id": "324123",
        "customer": {
          "id": "1234",
          "name": "213",
          "email": "1234@df",
          "address": {
            "street": "455",
            "number": 1,
            "city": "fghjkl",
            "lon": 35.027658,
            "lat": 32.77319
          }
        },
        "start_date": 1747760460,
        "eta": 1748019660,
        "status": "packed",
        "path": [
          {
            "lon": 35.027658,
            "lat": 32.77319
          },
          {
            "lon": 35.027658,
            "lat": 32.77319
          }
        ]
      }
    }
  ],
  "3": [
    {
      "ยง123": {
        "id": "ยง123",
        "prod_id": "123123",
        "customer": {
          "id": "123",
          "name": "123",
          "email": "21@123",
          "address": {
            "street": "wed",
            "number": 12,
            "city": "12",
            "lon": null,
            "lat": null
          }
        },
        "start_date": 1747758960,
        "eta": 1748018160,
        "status": "packed",
        "path": [
          {
            "lon": null,
            "lat": null
          },
          {
            "lon": null,
            "lat": null
          }
        ]
      }
    }
  ],
  "4": [
    {
      "1234": {
        "id": "1234",
        "prod_id": "234213",
        "customer": {
          "id": "1234",
          "name": "213",
          "email": "2134@esdf",
          "address": {
            "street": "Hillel",
            "number": 1,
            "city": "Jerusalem",
            "lon": 35.2159793,
            "lat": 31.780471
          }
        },
        "start_date": "2025-05-20T19:29:00.000Z",
        "eta": "2025-05-23T19:29:00.000Z",
        "status": "packed",
        "path": [
          {
            "lon": 35.2159793,
            "lat": 31.780471
          },
          {
            "lon": 35.2159793,
            "lat": 31.780471
          }
        ]
      }
    },
    {
      "12w3e4r": {
        "id": "12w3e4r",
        "prod_id": "2134",
        "customer": {
          "id": "213",
          "name": "2134",
          "email": "23@dsf",
          "address": {
            "street": "21w3",
            "number": 234,
            "city": "Ashdod",
            "lon": 34.651074,
            "lat": 31.791658
          }
        },
        "start_date": "2025-05-20T19:30:00.000Z",
        "eta": "2025-05-23T19:30:00.000Z",
        "status": "packed",
        "path": [
          {
            "lon": 34.651074,
            "lat": 31.791658
          },
          {
            "lon": 34.651074,
            "lat": 31.791658
          }
        ]
      }
    },
    {
      "34356": {
        "id": "34356",
        "prod_id": "2134",
        "customer": {
          "id": "123",
          "name": "213",
          "email": "2134@df",
          "address": {
            "street": "23",
            "number": 21,
            "city": "213",
            "lon": 34.57974,
            "lat": 31.666156
          }
        },
        "start_date": "2025-05-20T19:34:00.000Z",
        "eta": "2025-05-23T19:34:00.000Z",
        "status": "packed",
        "path": [
          {
            "lon": 34.57974,
            "lat": 31.666156
          },
          {
            "lon": 34.57974,
            "lat": 31.666156
          }
        ]
      }
    }
  ],
  "5": [
    {
      "234r": {
        "id": "234r",
        "prod_id": "1234",
        "customer": {
          "id": "2134",
          "name": "1234",
          "email": "213@dsf",
          "address": {
            "street": "98765432123456789",
            "number": 21,
            "city": "sadfg",
            "lon": 34.836968,
            "lat": 31.965724
          }
        },
        "start_date": 1747760640,
        "eta": 1748019840,
        "status": "packed",
        "path": [
          {
            "lon": 34.836968,
            "lat": 31.965724
          },
          {
            "lon": 34.836968,
            "lat": 31.965724
          }
        ]
      }
    }
  ],
  "6": [],
  "10": [
    {
      "pack-1": {
        "id": "pack-1",
        "prod_id": "1243",
        "customer": {
          "id": "12345",
          "name": "12345",
          "email": "1234@fdg",
          "address": {
            "street": "Hillel",
            "number": 1,
            "city": "Ashdod",
            "lon": 34.6659431,
            "lat": 31.7921724
          }
        },
        "start_date": 1747826280,
        "eta": 1748085480,
        "status": "packed",
        "path": [
          {
            "lon": 34.6659431,
            "lat": 31.7921724
          }
        ]
      }
    },
    {
      "pack-2": {
        "id": "pack-2",
        "prod_id": "1234",
        "customer": {
          "id": "2314",
          "name": "21343",
          "email": "mai@dsf",
          "address": {
            "street": "Hillel",
            "number": 2,
            "city": "Jerusalem",
            "lon": 35.2159981,
            "lat": 31.7804179
          }
        },
        "start_date": 1747826400,
        "eta": 1748085600,
        "status": "packed",
        "path": [
          {
            "lon": 35.2159981,
            "lat": 31.7804179
          }
        ]
      }
    },
    {
      "pack-3": {
        "id": "pack-3",
        "prod_id": "2324",
        "customer": {
          "id": "adi",
          "name": "adl",
          "email": "laskmd@sd.c",
          "address": {
            "street": "Hillel",
            "number": 1,
            "city": "Ashdod",
            "lon": 34.6659431,
            "lat": 31.7921724
          }
        },
        "start_date": 1747826700,
        "eta": 1748085900,
        "status": "packed",
        "path": [
          {
            "lon": 34.6659431,
            "lat": 31.7921724
          }
        ]
      }
    }
  ]
}