{
  "1": [
    {
      "sdfv": {
        "id": "sdfv",
        "prod_id": "dash",
        "name": "adsf",
        "customer": {
          "id": "ads",
          "name": "adsf",
          "email": "ads@dsf",
          "address": {
            "street": "Hillel",
            "number": 11,
            "city": "Jerusalem",
            "lon": 35.2166697,
            "lat": 31.7803929
          }
        },
        "start_date": 1748534640,
        "eta": 1748793840,
        "status": "packed",
        "path": [
          {
            "lat": 31.7803929,
            "lon": 35.2166697
          }
        ]
      }
    },
    {
      "pdfadsf": {
        "id": "pdfadsf",
        "prod_id": "asdf",
        "name": "adsf",
        "customer": {
          "id": "ads",
          "name": "asdf",
          "email": "ads@sdf",
          "address": {
            "street": "Hillel",
            "number": 33,
            "city": "Tel Aviv",
            "lon": 34.79195,
            "lat": 32.069333
          }
        },
        "start_date": 1748534700,
        "eta": 1748793900,
        "status": "packed",
        "path": [
          {
            "lat": 32.069333,
            "lon": 34.79195
          }
        ]
      }
    },
    {
      "sad sad": {
        "id": "sad sad",
        "prod_id": "asdsad",
        "name": "sadasd",
        "customer": {
          "id": "sad",
          "name": "asd",
          "email": "sad@cds",
          "address": {
            "street": "Hillel",
            "number": 33,
            "city": "Jerusalem",
            "lon": 35.219573,
            "lat": 31.77986
          }
        },
        "start_date": 1748534700,
        "eta": 1748793900,
        "status": "packed",
        "path": [
          {
            "lat": 31.77986,
            "lon": 35.219573
          }
        ]
      }
    }
  ],
  "2": [
    {
      "sdfcfdvgh": {
        "id": "sdfcfdvgh",
        "prod_id": "sdfcfdvgh",
        "name": "sdfcfdvgh",
        "customer": {
          "id": "sdfcfdvgh",
          "name": "sdfcfdvgh",
          "email": "sdfcfdvgh@sdfcfdvgh",
          "address": {
            "street": "Hillel",
            "number": 11,
            "city": "Jerusalem",
            "lon": 35.2166697,
            "lat": 31.7803929
          }
        },
        "start_date": 1748535660,
        "eta": 1748794860,
        "status": "packed",
        "path": [
          {
            "lat": 31.7803929,
            "lon": 35.2166697
          }
        ]
      }
    },
    {
      "1234": {
        "id": "1234",
        "prod_id": "1234",
        "name": "1234",
        "customer": {
          "id": "1234",
          "name": "1234",
          "email": "1234@1234",
          "address": {
            "street": "Hillel",
            "number": 1,
            "city": "Jerusalem",
            "lon": 35.2159793,
            "lat": 31.780471
          }
        },
        "start_date": 1748535840,
        "eta": 1748795040,
        "status": "packed",
        "path": [
          {
            "lat": 31.780471,
            "lon": 35.2159793
          }
        ]
      }
    },
    {
      "P234": {
        "id": "P234",
        "prod_id": "P234",
        "name": "P234",
        "customer": {
          "id": "P234",
          "name": "P234",
          "email": "P234@edwsf",
          "address": {
            "street": "Hillel",
            "number": 11,
            "city": "Tel Aviv",
            "lon": 34.8278984,
            "lat": 32.0805227
          }
        },
        "start_date": 1748535900,
        "eta": 1748795100,
        "status": "packed",
        "path": [
          {
            "lat": 32.0805227,
            "lon": 34.8278984
          }
        ]
      }
    },
    {
      "wqedrf": {
        "id": "wqedrf",
        "prod_id": "sadefr",
        "name": "asdfr",
        "customer": {
          "id": "sadf",
          "name": "asxdc",
          "email": "sad@asd",
          "address": {
            "street": "sad",
            "number": 234,
            "city": "asd",
            "lon": 35.25742,
            "lat": 31.73721
          }
        },
        "start_date": 1748535960,
        "eta": 1748795160,
        "status": "packed",
        "path": [
          {
            "lat": 31.73721,
            "lon": 35.25742
          }
        ]
      }
    }
  ]
}