{
  "1": [
    {
      "PACK_ID1": {
        "id": "PACK_ID1",
        "prod_id": "PROD_ID1",
        "name": "pack_name",
        "customer": {
          "id": "1111111",
          "name": "Alon Lev",
          "email": "alon111@gmail.com",
          "address": {
            "street": "Hertzel",
            "number": 10,
            "city": "Tel Aviv",
            "lon": 32.0625439,
            "lat": 34.7699465
          }
        },
        "start_date": 1746907533,
        "eta": 1747771531,
        "status": "packed",
        "path": [
          {
            "lat": 34.7699465,
            "lon": 32.0625439
          }
        ]
      }
    },
    {
      "Pack_ID2": {
        "id": "Pack_ID2",
        "prod_id": "124324",
        "name": "qwert",
        "customer": {
          "id": "12345",
          "name": "qwer",
          "email": "aa@qq",
          "address": {
            "street": "Hillel",
            "number": 1,
            "city": "Jerusalem",
            "lon": 35.2159793,
            "lat": 31.780471
          }
        },
        "start_date": 1748536860,
        "eta": 1748796060,
        "status": "packed",
        "path": [
          {
            "lat": 31.780471,
            "lon": 35.2159793
          }
        ]
      }
    }
  ],
  "2": [
    {
      "sdfcfdvgh": {
        "id": "sdfcfdvgh",
        "prod_id": "sdfcfdvgh",
        "name": "sdfcfdvgh",
        "customer": {
          "id": "sdfcfdvgh",
          "name": "sdfcfdvgh",
          "email": "sdfcfdvgh@sdfcfdvgh",
          "address": {
            "street": "Hillel",
            "number": 11,
            "city": "Jerusalem",
            "lon": 35.2166697,
            "lat": 31.7803929
          }
        },
        "start_date": 1748535660,
        "eta": 1748794860,
        "status": "packed",
        "path": [
          {
            "lat": 31.7803929,
            "lon": 35.2166697
          }
        ]
      }
    },
    {
      "1234": {
        "id": "1234",
        "prod_id": "1234",
        "name": "1234",
        "customer": {
          "id": "1234",
          "name": "1234",
          "email": "1234@1234",
          "address": {
            "street": "Hillel",
            "number": 1,
            "city": "Jerusalem",
            "lon": 35.2159793,
            "lat": 31.780471
          }
        },
        "start_date": 1748535840,
        "eta": 1748795040,
        "status": "packed",
        "path": [
          {
            "lat": 31.780471,
            "lon": 35.2159793
          }
        ]
      }
    },
    {
      "P234": {
        "id": "P234",
        "prod_id": "P234",
        "name": "P234",
        "customer": {
          "id": "P234",
          "name": "P234",
          "email": "P234@edwsf",
          "address": {
            "street": "Hillel",
            "number": 11,
            "city": "Tel Aviv",
            "lon": 34.8278984,
            "lat": 32.0805227
          }
        },
        "start_date": 1748535900,
        "eta": 1748795100,
        "status": "packed",
        "path": [
          {
            "lat": 32.0805227,
            "lon": 34.8278984
          }
        ]
      }
    },
    {
      "wqedrf": {
        "id": "wqedrf",
        "prod_id": "sadefr",
        "name": "asdfr",
        "customer": {
          "id": "sadf",
          "name": "asxdc",
          "email": "sad@asd",
          "address": {
            "street": "sad",
            "number": 234,
            "city": "asd",
            "lon": 35.25742,
            "lat": 31.73721
          }
        },
        "start_date": 1748535960,
        "eta": 1748795160,
        "status": "packed",
        "path": [
          {
            "lat": 31.73721,
            "lon": 35.25742
          }
        ]
      }
    }
  ],
  "3": [
    {
      "adieu": {
        "id": "adieu",
        "prod_id": "adieu",
        "name": "adieu",
        "customer": {
          "id": "adieu",
          "name": "adieu",
          "email": "adieu@sda",
          "address": {
            "street": "Hillel",
            "number": 1,
            "city": "Jerusalem",
            "lon": 35.2159793,
            "lat": 31.780471
          }
        },
        "start_date": 1748539800,
        "eta": 1748799000,
        "status": "packed",
        "path": [
          {
            "lat": 31.780471,
            "lon": 35.2159793
          }
        ]
      }
    },
    {
      "12345": {
        "id": "12345",
        "prod_id": "adieu",
        "name": "adieu",
        "customer": {
          "id": "adieu",
          "name": "adieu",
          "email": "adieu@dsfg",
          "address": {
            "street": "Manheten",
            "number": 2,
            "city": "New York",
            "lon": 35.563945,
            "lat": 33.281388
          }
        },
        "start_date": 1748539800,
        "eta": 1748799000,
        "status": "packed",
        "path": [
          {
            "lat": 33.281388,
            "lon": 35.563945
          }
        ]
      }
    }
  ],
  "4": [
    {
      "wdefrgt": {
        "id": "wdefrgt",
        "prod_id": "wdefrgt",
        "name": "wdefrgt",
        "customer": {
          "id": "wdefrgt",
          "name": "wdefrgt",
          "email": "wdefrgt@wdefrgt",
          "address": {
            "street": "Hillel",
            "number": 1,
            "city": "Jerusalem",
            "lon": 35.2159793,
            "lat": 31.780471
          }
        },
        "start_date": 1748540160,
        "eta": 1748799360,
        "status": "packed",
        "path": [
          {
            "lat": 31.780471,
            "lon": 35.2159793
          }
        ]
      }
    },
    {
      "wdefrgt": {
        "id": "wdefrgt",
        "prod_id": "wdefrgt",
        "name": "wdefrgt",
        "customer": {
          "id": "wdefrgt",
          "name": "wdefrgt",
          "email": "wdefrgt@wdefrgt",
          "address": {
            "street": "Hillel",
            "number": 1,
            "city": "Jerusalem",
            "lon": 35.2159793,
            "lat": 31.780471
          }
        },
        "start_date": 1748540220,
        "eta": 1748799420,
        "status": "packed",
        "path": [
          {
            "lat": 31.780471,
            "lon": 35.2159793
          }
        ]
      }
    },
    {
      "wdefrgt": {
        "id": "wdefrgt",
        "prod_id": "wdefrgt",
        "name": "wdefrgt",
        "customer": {
          "id": "wdefrgt",
          "name": "wdefrgt",
          "email": "wdefrgt@d",
          "address": {
            "street": "Hillel",
            "number": 1,
            "city": "Jerusalem",
            "lon": 35.2159793,
            "lat": 31.780471
          }
        },
        "start_date": 1748540340,
        "eta": 1748799540,
        "status": "packed",
        "path": [
          {
            "lat": 31.780471,
            "lon": 35.2159793
          }
        ]
      }
    },
    {
      "1234": {
        "id": "1234",
        "prod_id": "1234",
        "name": "1234",
        "customer": {
          "id": "1234",
          "name": "1234",
          "email": "1234@f",
          "address": {
            "street": "Hertzel",
            "number": 1,
            "city": "Tel Aviv",
            "lon": 34.770027,
            "lat": 32.063481
          }
        },
        "start_date": 1748540580,
        "eta": 1748799780,
        "status": "packed",
        "path": [
          {
            "lat": 32.063481,
            "lon": 34.770027
          }
        ]
      }
    },
    {
      "12345": {
        "id": "12345",
        "prod_id": "1234",
        "name": "1234",
        "customer": {
          "id": "wdsfgh",
          "name": "dsfg",
          "email": "sdf@dcf",
          "address": {
            "street": "Cherry",
            "number": 1,
            "city": "Tel Aviv",
            "lon": 34.783553,
            "lat": 32.066455
          }
        },
        "start_date": 1748540640,
        "eta": 1748799840,
        "status": "packed",
        "path": [
          {
            "lat": 32.066455,
            "lon": 34.783553
          }
        ]
      }
    }
  ]
}